Time,Latitude,Longitude,Airspeed,Altitude,Roll,Pitch,Yaw
30-Jun-2024 10:00:01,55.8691,-4.4351,0,0,0,0,0
30-Jun-2024 10:00:02,55.8680198997252,-4.43367139527685,0.617518544655512,36.6768546818561,-0.959733264911622,0.0333425951653237,-0.502733997376733
30-Jun-2024 10:00:03,55.8669397994503,-4.4322427905537,1.23503708931102,73.3537093637121,0,0.0666851903306474,0.0282366585570196
30-Jun-2024 10:00:04,55.8658596991755,-4.43081418583055,1.85255563396654,110.030564045568,0,0.100027785495971,0
30-Jun-2024 10:00:05,55.8647795892991,-4.42938562722153,2.47007417862205,146.707418727424,-0.122766337676555,0.133370380661295,0.16877280645709
30-Jun-2024 10:00:06,55.8636994253541,-4.42795732829065,3.08759272327756,183.38427340928,0,0.166712975826619,-0.648685800633847
30-Jun-2024 10:00:07,55.862619261409,-4.42652902935977,3.70511126793307,220.061128091136,0,0.200055570991942,0
30-Jun-2024 10:00:08,55.861539097464,-4.42510073042888,4.32262981258859,256.737982772993,0,0.233398166157266,0
30-Jun-2024 10:00:09,55.8604589143229,-4.42367252369755,4.9401483572441,293.414837454849,0,0.26674076132259,0
30-Jun-2024 10:00:10,55.8593786867312,-4.42224453046373,5.55766690189961,330.091692136705,0,0.300083356487913,0
30-Jun-2024 10:00:11,55.8582984591395,-4.42081653722992,6.17518544655512,366.768546818561,0,0.333425951653237,0
30-Jun-2024 10:00:12,55.8572182315478,-4.41938854399611,6.79270399121064,403.445401500417,0,0.366768546818561,0.533495879997266
30-Jun-2024 10:00:13,55.8561379751727,-4.41796068901856,7.41022253586615,440.122256182273,0,0.400111141983884,0
30-Jun-2024 10:00:14,55.8550576839579,-4.41653300138664,8.02774108052166,476.799110864129,0,0.433453737149208,0
30-Jun-2024 10:00:15,55.8539773927432,-4.41510531375473,8.64525962517717,513.475965545985,0,0.466796332314532,0
30-Jun-2024 10:00:16,55.8528971015284,-4.41367762612282,9.26277816983269,550.152820227841,0,0.500138927479856,0
30-Jun-2024 10:00:17,55.8518167719499,-4.41225012277521,9.8802967144882,586.829674909697,-0.531780601442333,0.533481522645179,0
30-Jun-2024 10:00:18,55.8507364171356,-4.41082274065006,10.4978152591437,623.506529591553,0,0.566824117810503,0
30-Jun-2024 10:00:19,55.8496560623214,-4.40939535852491,11.1153338037992,660.183384273409,0,0.600166712975827,0
30-Jun-2024 10:00:20,55.8485757075071,-4.40796797639976,11.7328523484547,696.860238955265,0,0.63350930814115,0
30-Jun-2024 10:00:21,55.8474953047559,-4.40654082455826,12.3503708931102,733.537093637122,0,0.666851903306474,0.301725942223973
30-Jun-2024 10:00:22,55.8464148863656,-4.40511374784476,12.9678894377658,770.213948318978,0,0.700194498471798,-0.764625170836045
30-Jun-2024 10:00:23,55.8453344679754,-4.40368667113127,13.5854079824213,806.890803000834,0,0.733537093637121,0
30-Jun-2024 10:00:24,55.8442540495851,-4.40225959441777,14.2029265270768,843.56765768269,0,0.766879688802445,0
30-Jun-2024 10:00:25,55.8431735736918,-4.40083279395862,14.8204450717323,880.244512364546,0.6408156104404,0.800222283967769,0
30-Jun-2024 10:00:26,55.8420930917491,-4.39940602256169,15.4379636163878,916.921367046402,0,0.833564879133092,0
30-Jun-2024 10:00:27,55.8410126098064,-4.39797925116476,16.0554821610433,953.598221728258,0,0.866907474298416,0
30-Jun-2024 10:00:28,55.8399321243305,-4.39655249674271,16.6730007056988,990.275076410114,0,0.90025006946374,0
30-Jun-2024 10:00:29,55.8388515788589,-4.39512603056729,17.2905192503543,1026.95193109197,-0.0757608391516522,0.933592664629064,0
30-Jun-2024 10:00:30,55.8377710333873,-4.39369956439187,17.9080377950099,1063.62878577383,0,0.966935259794387,0
30-Jun-2024 10:00:31,55.8366904879157,-4.39227309821645,18.5255563396654,1100.30564045568,0,1.00027785495971,0
30-Jun-2024 10:00:32,55.8356099293355,-4.39084669502436,19.1430748843209,1136.98249513754,0,1.03362045012503,0.0148159783614029
30-Jun-2024 10:00:33,55.8345293203584,-4.38942053397542,19.7605934289764,1173.65934981939,0,1.06696304529036,0.756280050642147
30-Jun-2024 10:00:34,55.8334487113814,-4.38799437292649,20.3781119736319,1210.33620450125,0,1.10030564045568,0.146307070177405
30-Jun-2024 10:00:35,55.8323681024044,-4.38656821187755,20.9956305182874,1247.01305918311,0,1.13364823562101,0
30-Jun-2024 10:00:36,55.8312874707504,-4.38514215979174,21.6131490629429,1283.68991386496,0,1.16699083078633,0
30-Jun-2024 10:00:37,55.8302067982914,-4.38371630377429,22.2306676075984,1320.36676854682,0,1.20033342595165,0.0202365566937108
30-Jun-2024 10:00:38,55.8291261258325,-4.38229044775684,22.848186152254,1357.04362322867,0.0837195387425235,1.23367602111698,0
30-Jun-2024 10:00:39,55.8280454533735,-4.38086459173939,23.4657046969095,1393.72047791053,0,1.2670186162823,0
30-Jun-2024 10:00:40,55.8269647486763,-4.37943889063621,24.083223241565,1430.39733259239,0,1.30036121144762,0
30-Jun-2024 10:00:41,55.825884012759,-4.37801333955527,24.7007417862205,1467.07418727424,0,1.33370380661295,0
30-Jun-2024 10:00:42,55.8248032768416,-4.37658778847434,25.318260330876,1503.7510419561,0,1.36704640177827,0
30-Jun-2024 10:00:43,55.8237225409243,-4.3751622373934,25.9357788755315,1540.42789663796,0.304923026619155,1.4003889969436,0
30-Jun-2024 10:00:44,55.8226417632145,-4.37373688714927,26.553297420187,1577.10475131981,0,1.43373159210892,0
30-Jun-2024 10:00:45,55.8215609638622,-4.37231164090991,27.1708159648425,1613.78160600167,0,1.46707418727424,0
30-Jun-2024 10:00:46,55.8204801645098,-4.37088639467054,27.7883345094981,1650.45846068352,0,1.50041678243957,0
30-Jun-2024 10:00:47,55.8193993651575,-4.36946114843118,28.4058530541536,1687.13531536538,0,1.53375937760489,0
30-Jun-2024 10:00:48,55.8183185144657,-4.36803614892254,29.0233715988091,1723.81217004724,0.48113966638503,1.56710197277021,0
30-Jun-2024 10:00:49,55.8172376517019,-4.36661120742983,29.6408901434646,1760.48902472909,0,1.60044456793554,0
30-Jun-2024 10:00:50,55.8161567889382,-4.36518626593713,30.2584086881201,1797.16587941095,0,1.63378716310086,0
30-Jun-2024 10:00:51,55.8150759261744,-4.36376132444442,30.8759272327756,1833.8427340928,0,1.66712975826618,-0.0204967037055814
30-Jun-2024 10:00:52,55.813995002531,-4.36233667554775,31.4934457774311,1870.51958877466,0,1.70047235343151,0.460917609891365
30-Jun-2024 10:00:53,55.8129140763792,-4.36091203870682,32.1109643220866,1907.19644345652,0,1.73381494859683,0
30-Jun-2024 10:00:54,55.8118331502275,-4.35948740186589,32.7284828667422,1943.87329813837,0,1.76715754376216,0.116625873934886
30-Jun-2024 10:00:55,55.8107522170277,-4.3580627989008,33.3460014113977,1980.55015282023,0,1.80050013892748,0
30-Jun-2024 10:00:56,55.8096712275113,-4.35663846661678,33.9635199560532,2017.22700750208,0.358720704722394,1.8338427340928,0
30-Jun-2024 10:00:57,55.808590237995,-4.35521413433277,34.5810385007087,2053.90386218394,0,1.86718532925813,0
30-Jun-2024 10:00:58,55.8075092484787,-4.35378980204875,35.1985570453642,2090.5807168658,0,1.90052792442345,0
30-Jun-2024 10:00:59,55.806428242365,-4.35236554954356,35.8160755900197,2127.25757154765,0,1.93387051958877,-0.380973009658243
30-Jun-2024 10:01:00,55.8053471895076,-4.35094152172163,36.4335941346752,2163.93442622951,0,1.9672131147541,0
30-Jun-2024 10:01:01,55.8042661366501,-4.34951749389969,37.0511126793307,2200.61128091136,0,2.00055570991942,0
30-Jun-2024 10:01:02,55.8031850837927,-4.34809346607776,37.6686312239863,2237.28813559322,0.314881590164185,2.03389830508475,0.467017384753469
30-Jun-2024 10:01:03,55.8021040047955,-4.34666956390906,38.2861497686418,2273.96499027508,0,2.06724090025007,0
30-Jun-2024 10:01:04,55.8010228886204,-4.34524584045441,38.9036683132973,2310.64184495693,0,2.10058349541539,0
30-Jun-2024 10:01:05,55.7999417724453,-4.34382211699976,39.5211868579528,2347.31869963879,0,2.13392609058072,0
30-Jun-2024 10:01:06,55.7988606562702,-4.3423983935451,40.1387054026083,2383.99555432064,0,2.16726868574604,0
30-Jun-2024 10:01:07,55.7977795044202,-4.3409748415895,40.7562239472638,2420.6724090025,0,2.20061128091136,0
30-Jun-2024 10:01:08,55.7966983249508,-4.33955142240736,41.3737424919193,2457.34926368436,0,2.23395387607669,0
30-Jun-2024 10:01:09,55.7956171454815,-4.33812800322522,41.9912610365748,2494.02611836621,0,2.26729647124201,0
30-Jun-2024 10:01:10,55.7945359660121,-4.33670458404308,42.6087795812304,2530.70297304807,0,2.30063906640734,0
30-Jun-2024 10:01:11,55.7934547413396,-4.33528138217724,43.2262981258859,2567.37982772993,-0.386843451136194,2.33398166157266,0
30-Jun-2024 10:01:12,55.7923734985994,-4.33385826717287,43.8438166705414,2604.05668241178,0,2.36732425673798,-0.236787029135116
30-Jun-2024 10:01:13,55.7912922558592,-4.33243515216849,44.4613352151969,2640.73353709364,0,2.40066685190331,0
30-Jun-2024 10:01:14,55.790211013119,-4.33101203716411,45.0788537598524,2677.41039177549,0,2.43400944706863,0
30-Jun-2024 10:01:15,55.7891297156545,-4.32958918526474,45.6963723045079,2714.08724645735,0,2.46735204223395,-0.0394749832785651
30-Jun-2024 10:01:16,55.7880484096669,-4.32816637434341,46.3138908491634,2750.76410113921,0,2.50069463739928,0
30-Jun-2024 10:01:17,55.7869671036792,-4.32674356342208,46.9314093938189,2787.44095582106,0,2.5340372325646,0
30-Jun-2024 10:01:18,55.7858857966773,-4.32532075737757,47.5489279384744,2824.11781050292,0,2.56737982772992,0
30-Jun-2024 10:01:19,55.7848044274656,-4.3238982504446,48.16644648313,2860.79466518477,0,2.60072242289525,0
30-Jun-2024 10:01:20,55.7837230582539,-4.32247574351163,48.7839650277855,2897.47151986663,0,2.63406501806057,0
30-Jun-2024 10:01:21,55.7826416890422,-4.32105323657866,49.401483572441,2934.14837454849,0,2.6674076132259,0
30-Jun-2024 10:01:22,55.7815603092858,-4.31963078034881,50.0190021170965,2970.82522923034,0.957646969269582,2.70075020839122,0
30-Jun-2024 10:01:23,55.7804788768734,-4.31820857730953,50.636520661752,3007.5020839122,0,2.73409280355654,0.523878416485213
30-Jun-2024 10:01:24,55.7793974444611,-4.31678637427026,51.2540392064075,3044.17893859405,0,2.76743539872187,0
30-Jun-2024 10:01:25,55.7783160120487,-4.31536417123099,51.871557751063,3080.85579327591,0,2.80077799388719,0
30-Jun-2024 10:01:26,55.7772345595683,-4.31394206469259,52.4890762957185,3117.53264795777,0,2.83412058905251,-0.233356124384079
30-Jun-2024 10:01:27,55.7761530639786,-4.31252016545238,53.1065948403741,3154.20950263962,0,2.86746318421784,-0.0190889051517075
30-Jun-2024 10:01:28,55.775071568389,-4.31109826621218,53.7241133850296,3190.88635732148,0,2.90080577938316,0
30-Jun-2024 10:01:29,55.7739900727993,-4.30967636697197,54.3416319296851,3227.56321200333,0,2.93414837454849,0
30-Jun-2024 10:01:30,55.7729085476253,-4.30825461000187,54.9591504743406,3264.24006668519,0,2.96749096971381,0
30-Jun-2024 10:01:31,55.7718269888817,-4.30683301446612,55.5766690189961,3300.91692136705,-0.584175348321607,3.00083356487913,-0.348901350012545
30-Jun-2024 10:01:32,55.7707454301381,-4.30541141893038,56.1941875636516,3337.5937760489,0,3.03417616004446,0
30-Jun-2024 10:01:33,55.7696638713945,-4.30398982339463,56.8117061083071,3374.27063073076,0,3.06751875520978,0
30-Jun-2024 10:01:34,55.7685822735572,-4.30256841586971,57.4292246529627,3410.94748541261,0,3.1008613503751,0
30-Jun-2024 10:01:35,55.7675006516831,-4.30114712394385,58.0467431976182,3447.62434009447,0,3.13420394554043,0
30-Jun-2024 10:01:36,55.7664190298089,-4.29972583201799,58.6642617422737,3484.30119477633,0,3.16754654070575,0
30-Jun-2024 10:01:37,55.7653374079347,-4.29830454009212,59.2817802869292,3520.97804945818,0,3.20088913587108,0
30-Jun-2024 10:01:38,55.7642557374646,-4.2968834818893,59.8992988315847,3557.65490414004,0,3.2342317310364,0
30-Jun-2024 10:01:39,55.7631740524832,-4.29546249347878,60.5168173762402,3594.3317588219,0,3.26757432620172,0
30-Jun-2024 10:01:40,55.7620923675018,-4.29404150506825,61.1343359208957,3631.00861350375,0,3.30091692136705,-0.124686945994882
30-Jun-2024 10:01:41,55.7610106825204,-4.29262051665773,61.7518544655512,3667.68546818561,0,3.33425951653237,0
30-Jun-2024 10:01:42,55.7599289394479,-4.29119980765397,62.3693730102068,3704.36232286746,0,3.36760211169769,0
30-Jun-2024 10:01:43,55.7588471913826,-4.28977912266426,62.9868915548623,3741.03917754932,0,3.40094470686302,0
30-Jun-2024 10:01:44,55.7577654433172,-4.28835843767455,63.6044100995178,3777.71603223118,-0.0234396997690965,3.43428730202834,0
30-Jun-2024 10:01:45,55.7566836907332,-4.28693777442053,64.2219286441733,3814.39288691303,0,3.46762989719366,0
30-Jun-2024 10:01:46,55.7556018796073,-4.28551739275715,64.8394471888288,3851.06974159489,-0.293063069788201,3.50097249235899,-1.06637034648896
30-Jun-2024 10:01:47,55.7545200684814,-4.28409701109377,65.4569657334843,3887.74659627674,0,3.53431508752431,0.626219378760501
30-Jun-2024 10:01:48,55.7534382573555,-4.28267662943038,66.0744842781398,3924.4234509586,0,3.56765768268964,0
30-Jun-2024 10:01:49,55.7523564322063,-4.28125631522393,66.6920028227953,3961.10030564046,0,3.60100027785496,0.912875614012774
30-Jun-2024 10:01:50,55.7512745580432,-4.27983623679241,67.3095213674509,3997.77716032231,1.18261237129946,3.63434287302028,-0.576860773254566
30-Jun-2024 10:01:51,55.75019268388,-4.27841615836089,67.9270399121064,4034.45401500417,0,3.66768546818561,0
30-Jun-2024 10:01:52,55.7491108097169,-4.27699607992937,68.5445584567619,4071.13086968602,0.261497267168467,3.70102806335093,0
30-Jun-2024 10:01:53,55.748028912033,-4.27557611464754,69.1620770014174,4107.80772436788,0,3.73437065851625,0
30-Jun-2024 10:01:54,55.7469469748559,-4.27415633935345,69.7795955460729,4144.48457904974,0,3.76771325368158,-0.206517814443846
30-Jun-2024 10:01:55,55.7458650376788,-4.27273656405936,70.3971140907284,4181.16143373159,-0.387256552380375,3.8010558488469,0
30-Jun-2024 10:01:56,55.7447831005016,-4.27131678876526,71.0146326353839,4217.83828841345,-0.466817147015049,3.83439844401223,0.483142769364777
30-Jun-2024 10:01:57,55.7437011303134,-4.26989717228516,71.6321511800394,4254.5151430953,0,3.86774103917755,0
30-Jun-2024 10:01:58,55.7426191301456,-4.26847770003408,72.249669724695,4291.19199777716,-0.173938986542552,3.90108363434287,0
30-Jun-2024 10:01:59,55.7415371299778,-4.26705822778301,72.8671882693505,4327.86885245902,0,3.9344262295082,0
30-Jun-2024 10:02:00,55.74045512981,-4.26563875553194,73.484706814006,4364.54570714087,0,3.96776882467352,0
30-Jun-2024 10:02:01,55.7393730871476,-4.2642194877307,74.1022253586615,4401.22256182273,-0.236618571665681,4.00111141983884,0
30-Jun-2024 10:02:02,55.7382910240124,-4.26280031842826,74.719743903317,4437.89941650458,0,4.03445401500417,0
30-Jun-2024 10:02:03,55.7372089608773,-4.26138114912583,75.3372624479725,4474.57627118644,0,4.06779661016949,0
30-Jun-2024 10:02:04,55.7361268977421,-4.2599619798234,75.954780992628,4511.2531258683,0,4.10113920533482,0
30-Jun-2024 10:02:05,55.7350447826359,-4.2585430605782,76.5722995372835,4547.92998055015,0.408758141618608,4.13448180050014,0
30-Jun-2024 10:02:06,55.7339626565566,-4.25712419413005,77.1898180819391,4584.60683523201,0,4.16782439566546,-0.466921557248931
30-Jun-2024 10:02:07,55.7328805304773,-4.25570532768191,77.8073366265945,4621.28368991386,0,4.20116699083079,0
30-Jun-2024 10:02:08,55.731798404398,-4.25428646123377,78.4248551712501,4657.96054459572,0,4.23450958599611,0.219831554905176
30-Jun-2024 10:02:09,55.7307162168783,-4.25286789042183,79.0423737159056,4694.63739927758,-0.329490714291782,4.26785218116143,0.586501438506728
30-Jun-2024 10:02:10,55.7296340278782,-4.25144932673365,79.6598922605611,4731.31425395943,0,4.30119477632676,0
30-Jun-2024 10:02:11,55.728551838878,-4.25003076304548,80.2774108052166,4767.99110864129,0,4.33453737149208,0.0974947859886999
30-Jun-2024 10:02:12,55.7274696418727,-4.24861223787838,80.8949293498721,4804.66796332315,0,4.3678799666574,0.169289598901402
30-Jun-2024 10:02:13,55.726387389975,-4.24719397685588,81.5124478945277,4841.344818005,0,4.40122256182273,0
30-Jun-2024 10:02:14,55.7253051380772,-4.24577571583338,82.1299664391831,4878.02167268686,0,4.43456515698805,0
30-Jun-2024 10:02:15,55.7242228861795,-4.24435745481087,82.7474849838387,4914.69852736871,0.37574742848505,4.46790775215338,0
30-Jun-2024 10:02:16,55.7231406167979,-4.24293927792587,83.3650035284942,4951.37538205057,-0.067382563361425,4.5012503473187,0
30-Jun-2024 10:02:17,55.7220583020258,-4.24152131947477,83.9825220731497,4988.05223673243,0,4.53459294248402,0
30-Jun-2024 10:02:18,55.7209759872537,-4.24010336102368,84.6000406178052,5024.72909141428,0,4.56793553764935,0
30-Jun-2024 10:02:19,55.7198936724816,-4.23868540257258,85.2175591624607,5061.40594609614,0,4.60127813281467,0
30-Jun-2024 10:02:20,55.7188113307541,-4.23726757384698,85.8350777071162,5098.08280077799,0,4.63462072797999,0
30-Jun-2024 10:02:21,55.7177289531308,-4.23584991787305,86.4525962517717,5134.75965545985,0,4.66796332314532,0
30-Jun-2024 10:02:22,55.7166465755076,-4.23443226189912,87.0701147964272,5171.43651014171,0,4.70130591831064,0
30-Jun-2024 10:02:23,55.7155641978843,-4.23301460592519,87.6876333410828,5208.11336482356,0,4.73464851347597,0
30-Jun-2024 10:02:24,55.7144817838411,-4.23159712523635,88.3051518857383,5244.79021950542,0,4.76799110864129,0
30-Jun-2024 10:02:25,55.7133993433899,-4.23017977164538,88.9226704303938,5281.46707418727,0,4.80133370380661,0
30-Jun-2024 10:02:26,55.7123169029388,-4.22876241805441,89.5401889750493,5318.14392886913,0,4.83467629897194,0
30-Jun-2024 10:02:27,55.7112344624876,-4.22734506446343,90.1577075197048,5354.82078355099,0,4.86801889413726,0
30-Jun-2024 10:02:28,55.7101519761589,-4.22592793168875,90.7752260643603,5391.49763823284,0,4.90136148930258,0
30-Jun-2024 10:02:29,55.709069472903,-4.22451088038655,91.3927446090158,5428.1744929147,0,4.93470408446791,0
30-Jun-2024 10:02:30,55.7079869696472,-4.22309382908435,92.0102631536713,5464.85134759655,0,4.96804667963323,0
30-Jun-2024 10:02:31,55.7069044663914,-4.22167677778216,92.6277816983269,5501.52820227841,0,5.00138927479856,0
30-Jun-2024 10:02:32,55.7058219078073,-4.22025999279907,93.2453002429824,5538.20505696027,0,5.03473186996388,0
30-Jun-2024 10:02:33,55.7047393417699,-4.21884324369149,93.8628187876379,5574.88191164212,0.122595796862011,5.0680744651292,0.481247809673296
30-Jun-2024 10:02:34,55.7036567757326,-4.21742649458391,94.4803373322934,5611.55876632398,1.78493388843716,5.10141706029453,0
30-Jun-2024 10:02:35,55.7025742076817,-4.2160097551694,95.0978558769489,5648.23562100584,-0.449934259999766,5.13475965545985,0
30-Jun-2024 10:02:36,55.7014915788861,-4.21459330816232,95.7153744216044,5684.91247568769,0,5.16810225062517,0
30-Jun-2024 10:02:37,55.7004089500905,-4.21317686115523,96.3328929662599,5721.58933036955,0,5.2014448457905,-0.621131505620606
30-Jun-2024 10:02:38,55.6993263212949,-4.21176041414815,96.9504115109155,5758.2661850514,0,5.23478744095582,0
30-Jun-2024 10:02:39,55.6982436810258,-4.21034402237433,97.5679300555709,5794.94303973326,0,5.26813003612114,0.27764027123265
30-Jun-2024 10:02:40,55.6971609894951,-4.20892787737364,98.1854486002265,5831.61989441512,0,5.30147263128647,0
30-Jun-2024 10:02:41,55.6960782979644,-4.20751173237296,98.802967144882,5868.29674909697,1.00496374726085,5.33481522645179,0
30-Jun-2024 10:02:42,55.6949956064337,-4.20609558737227,99.4204856895375,5904.97360377883,0,5.36815782161712,0
30-Jun-2024 10:02:43,55.6939128939766,-4.20467954311666,100.038004234193,5941.65045846068,0,5.40150041678244,0
30-Jun-2024 10:02:44,55.692830139734,-4.20326370002831,100.655522778849,5978.32731314254,0,5.43484301194776,0
30-Jun-2024 10:02:45,55.6917473854913,-4.20184785693995,101.273041323504,6015.0041678244,0,5.46818560711309,0
30-Jun-2024 10:02:46,55.6906646312487,-4.20043201385159,101.89055986816,6051.68102250625,0,5.50152820227841,0
30-Jun-2024 10:02:47,55.6895818466338,-4.19901631699178,102.508078412815,6088.35787718811,0.401092324013768,5.53487079744373,0
30-Jun-2024 10:02:48,55.6884990297024,-4.19760077572171,103.125596957471,6125.03473186996,0,5.56821339260906,0
30-Jun-2024 10:02:49,55.687416212771,-4.19618523445163,103.743115502126,6161.71158655182,0,5.60155598777438,0
30-Jun-2024 10:02:50,55.6863333958396,-4.19476969318156,104.360634046782,6198.38844123368,0,5.63489858293971,0.33410456126427
30-Jun-2024 10:02:51,55.6852505390971,-4.19335434359515,104.978152591437,6235.06529591553,0,5.66824117810503,0
30-Jun-2024 10:02:52,55.6841676595001,-4.19193910404935,105.595671136093,6271.74215059739,0,5.70158377327035,0
30-Jun-2024 10:02:53,55.6830847799031,-4.19052386450356,106.213189680748,6308.41900527924,0,5.73492636843568,-0.0608893697834017
30-Jun-2024 10:02:54,55.682001900306,-4.18910862495776,106.830708225404,6345.0958599611,0,5.768268963601,0
30-Jun-2024 10:02:55,55.680918971466,-4.1876936225224,107.448226770059,6381.77271464296,-0.23943258280134,5.80161155876632,0
30-Jun-2024 10:02:56,55.6798360292265,-4.18627868460689,108.065745314715,6418.44956932481,0,5.83495415393165,0
30-Jun-2024 10:02:57,55.678753086987,-4.18486374669138,108.68326385937,6455.12642400667,0,5.86829674909697,0
30-Jun-2024 10:02:58,55.6776701447475,-4.18344880877587,109.300782404026,6491.80327868852,0,5.90163934426229,0.653362281289071
30-Jun-2024 10:02:59,55.6765871438401,-4.18203415336927,109.918300948681,6528.48013337038,0.0683705816381405,5.93498193942762,0.523411742922858
30-Jun-2024 10:03:00,55.6755041389812,-4.18061951699009,110.535819493337,6565.15698805224,0,5.96832453459294,-0.400256828603294
30-Jun-2024 10:03:01,55.6744211341224,-4.17920488061091,111.153338037992,6601.83384273409,0,6.00166712975827,0
30-Jun-2024 10:03:02,55.6733381237739,-4.17779027066839,111.770856582648,6638.51069741595,0,6.03500972492359,0
30-Jun-2024 10:03:03,55.6722550563188,-4.17637593573161,112.388375127303,6675.18755209781,0,6.06835232008891,-0.175544720900084
30-Jun-2024 10:03:04,55.6711719888638,-4.17496160079483,113.005893671959,6711.86440677966,0,6.10169491525424,0
30-Jun-2024 10:03:05,55.6700889214088,-4.17354726585806,113.623412216614,6748.54126146152,0.0844012877443349,6.13503751041956,0.184743446134662
30-Jun-2024 10:03:06,55.6690058390299,-4.1721330027937,114.24093076127,6785.21811614337,0,6.16838010558488,0.110012726367662
30-Jun-2024 10:03:07,55.6679227090017,-4.17071896920543,114.858449305925,6821.89497082523,0,6.20172270075021,0
30-Jun-2024 10:03:08,55.6668395789736,-4.16930493561715,115.475967850581,6858.57182550709,-0.114646404634497,6.23506529591553,0.773935892613713
30-Jun-2024 10:03:09,55.6657564489455,-4.16789090202887,116.093486395236,6895.24868018894,0,6.26840789108086,0
30-Jun-2024 10:03:10,55.6646732945664,-4.16647698572047,116.711004939892,6931.9255348708,0.348183461441656,6.30175048624618,0
30-Jun-2024 10:03:11,55.6635901019882,-4.16506325338682,117.328523484547,6968.60238955265,0,6.3350930814115,0
30-Jun-2024 10:03:12,55.6625069094101,-4.16364952105317,117.946042029203,7005.27924423451,0,6.36843567657683,0
30-Jun-2024 10:03:13,55.661423716832,-4.16223578871952,118.563560573858,7041.95609891637,0,6.40177827174215,0
30-Jun-2024 10:03:14,55.6603404904826,-4.1608222190449,119.181079118514,7078.63295359822,-0.270993591556657,6.43512086690747,0
30-Jun-2024 10:03:15,55.6592572353776,-4.15940878787204,119.798597663169,7115.30980828008,0.143860747336834,6.4684634620728,-0.321295528269144
30-Jun-2024 10:03:16,55.6581739802726,-4.15799535669917,120.416116207825,7151.98666296193,-0.479642315251798,6.50180605723812,0
30-Jun-2024 10:03:17,55.6570907251676,-4.1565819255263,121.03363475248,7188.66351764379,0,6.53514865240344,0
30-Jun-2024 10:03:18,55.6560074268781,-4.15516870236334,121.651153297136,7225.34037232565,-1.03243001824035,6.56849124756877,0
30-Jun-2024 10:03:19,55.6549241092693,-4.15375557225744,122.268671841791,7262.0172270075,0,6.60183384273409,0
30-Jun-2024 10:03:20,55.6538407916605,-4.15234244215154,122.886190386447,7298.69408168936,0,6.63517643789942,0
30-Jun-2024 10:03:21,55.6527574740516,-4.15092931204564,123.503708931102,7335.37093637121,0,6.66851903306474,0
30-Jun-2024 10:03:22,55.6516741038521,-4.14951643527224,124.121227475758,7372.04779105307,0,6.70186162823006,-0.963499506099722
30-Jun-2024 10:03:23,55.6505907237625,-4.14810360613952,124.738746020414,7408.72464573493,0,6.73520422339539,0
30-Jun-2024 10:03:24,55.649507343673,-4.14669077700679,125.356264565069,7445.40150041678,0,6.76854681856071,0
30-Jun-2024 10:03:25,55.6484239635834,-4.14527794787407,125.973783109725,7482.07835509864,-0.30730927006633,6.80188941372603,0.399894738242567
30-Jun-2024 10:03:26,55.6473405215038,-4.14386541736819,126.59130165438,7518.75520978049,0,6.83523200889136,0
30-Jun-2024 10:03:27,55.6462570789566,-4.14245288911488,127.208820199036,7555.43206446235,0,6.86857460405668,-0.0043590463374667
30-Jun-2024 10:03:28,55.6451736364093,-4.14104036086157,127.826338743691,7592.10891914421,0,6.90191719922201,0
30-Jun-2024 10:03:29,55.6440901849143,-4.13962787571552,128.443857288347,7628.78577382606,0,6.93525979438733,0
30-Jun-2024 10:03:30,55.6430066799324,-4.1382156482479,129.061375833002,7665.46262850792,0,6.96860238955265,0
30-Jun-2024 10:03:31,55.6419231749506,-4.13680342078028,129.678894377658,7702.13948318978,0,7.00194498471798,0
30-Jun-2024 10:03:32,55.6408396699687,-4.13539119331265,130.296412922313,7738.81633787163,0,7.0352875798833,0
30-Jun-2024 10:03:33,55.6397561466306,-4.13397905428385,130.913931466969,7775.49319255349,0,7.06863017504863,-0.41979369342021
30-Jun-2024 10:03:34,55.6386725792372,-4.13256712750821,131.531450011624,7812.17004723534,-0.470895984530517,7.10197277021395,0
30-Jun-2024 10:03:35,55.6375890118438,-4.13115520073256,132.14896855628,7848.8469019172,0.326062405634966,7.13531536537927,0.0546276669194126
30-Jun-2024 10:03:36,55.6365054444504,-4.12974327395692,132.766487100935,7885.52375659906,0.513008243097992,7.16865796054459,0
30-Jun-2024 10:03:37,55.6354218492991,-4.12833148092341,133.384005645591,7922.20061128091,0,7.20200055570992,0
30-Jun-2024 10:03:38,55.6343382195171,-4.12691985474607,134.001524190246,7958.87746596277,0.0801136383743234,7.23534315087524,0
30-Jun-2024 10:03:39,55.6332545897352,-4.12550822856873,134.619042734902,7995.55432064462,0,7.26868574604057,0
30-Jun-2024 10:03:40,55.6321709599533,-4.1240966023914,135.236561279557,8032.23117532648,0,7.30202834120589,0
30-Jun-2024 10:03:41,55.6310872930188,-4.12268515523127,135.854079824213,8068.90803000834,0,7.33537093637121,0
30-Jun-2024 10:03:42,55.6300036008714,-4.12127382955859,136.471598368868,8105.58488469019,-0.173910159129871,7.36871353153654,0
30-Jun-2024 10:03:43,55.628919908724,-4.1198625038859,137.089116913524,8142.26173937205,0,7.40205612670186,0
30-Jun-2024 10:03:44,55.6278362165765,-4.11845117821322,137.706635458179,8178.9385940539,0.397353904718732,7.43539872186718,0
30-Jun-2024 10:03:45,55.6267524778889,-4.1170400768046,138.324154002835,8215.61544873576,0,7.46874131703251,0
30-Jun-2024 10:03:46,55.625668723399,-4.11562905154295,138.94167254749,8252.29230341762,0,7.50208391219783,0
30-Jun-2024 10:03:47,55.6245849689091,-4.11421802628131,139.559191092146,8288.96915809947,0,7.53542650736316,0
30-Jun-2024 10:03:48,55.6235012144192,-4.11280700101966,140.176709636801,8325.64601278133,0,7.56876910252848,0
30-Jun-2024 10:03:49,55.6224174040083,-4.11139624524072,140.794228181457,8362.32286746318,0.0469583782444826,7.6021116976938,0
30-Jun-2024 10:03:50,55.6213335871989,-4.10998552029652,141.411746726112,8398.99972214504,0,7.63545429285913,0
30-Jun-2024 10:03:51,55.6202497703895,-4.10857479535231,142.029265270768,8435.6765768269,0,7.66879688802445,0
30-Jun-2024 10:03:52,55.6191659505819,-4.10716408485738,142.646783815423,8472.35343150875,0,7.70213948318977,0
30-Jun-2024 10:03:53,55.618082071476,-4.10575366013706,143.264302360079,8509.03028619061,0,7.7354820783551,0
30-Jun-2024 10:03:54,55.6169981923701,-4.10434323541673,143.881820904734,8545.70714087246,0,7.76882467352042,0
30-Jun-2024 10:03:55,55.6159143132643,-4.10293281069641,144.49933944939,8582.38399555432,0,7.80216726868574,0
30-Jun-2024 10:03:56,55.6148304217703,-4.10152244568115,145.116857994045,8619.06085023618,0,7.83550986385107,0
30-Jun-2024 10:03:57,55.6137464803909,-4.10011232109117,145.734376538701,8655.73770491803,0,7.86885245901639,0
30-Jun-2024 10:03:58,55.6126625390115,-4.09870219650119,146.351895083356,8692.41455959989,0,7.90219505418172,0
30-Jun-2024 10:03:59,55.6115785976322,-4.09729207191121,146.969413628012,8729.09141428175,0,7.93553764934704,-0.733525334334252
30-Jun-2024 10:04:00,55.6104946344817,-4.09588205225389,147.586932172667,8765.7682689636,0,7.96888024451236,0
30-Jun-2024 10:04:01,55.6094106308519,-4.09447222770074,148.204450717323,8802.44512364546,0,8.00222283967769,0
30-Jun-2024 10:04:02,55.608326627222,-4.0930624031476,148.821969261978,8839.12197832731,0,8.03556543484301,0
30-Jun-2024 10:04:03,55.6072426235921,-4.09165257859445,149.439487806634,8875.79883300917,0,8.06890803000833,1.44382214391183
30-Jun-2024 10:04:04,55.6061585888151,-4.09024290417338,150.05700635129,8912.47568769103,0,8.10225062517366,0
30-Jun-2024 10:04:05,55.6050745229577,-4.08883337956358,150.674524895945,8949.15254237288,-0.392207646877816,8.13559322033898,0
30-Jun-2024 10:04:06,55.6039904571002,-4.08742385495379,151.292043440601,8985.82939705474,0,8.16893581550431,0.378078703767458
30-Jun-2024 10:04:07,55.6029063912428,-4.086014330344,151.909561985256,9022.5062517366,0,8.20227841066963,-0.408163368783962
30-Jun-2024 10:04:08,55.6018222848692,-4.08460500103751,152.527080529912,9059.18310641845,1.09212039342861,8.23562100583495,0.326007885043058
30-Jun-2024 10:04:09,55.6007381568072,-4.08319577627762,153.144599074567,9095.8599611003,0,8.26896360100028,0
30-Jun-2024 10:04:10,55.5996540287451,-4.08178655151774,153.762117619223,9132.53681578216,0,8.3023061961656,-0.0747312614522112
30-Jun-2024 10:04:11,55.5985699006831,-4.08037732675785,154.379636163878,9169.21367046402,0,8.33564879133093,0
30-Jun-2024 10:04:12,55.5974857227427,-4.07896834244433,154.997154708534,9205.89052514587,0,8.36899138649625,0
30-Jun-2024 10:04:13,55.5964015324991,-4.07755941744092,155.614673253189,9242.56737982773,0,8.40233398166157,0.518420000062813
30-Jun-2024 10:04:14,55.5953173422554,-4.07615049243751,156.232191797845,9279.24423450959,0,8.4356765768269,1.02706337209027
30-Jun-2024 10:04:15,55.5942331520117,-4.0747415674341,156.8497103425,9315.92108919144,0,8.46901917199222,0
30-Jun-2024 10:04:16,55.5931489025345,-4.07333292799199,157.467228887156,9352.5979438733,0,8.50236176715754,0
30-Jun-2024 10:04:17,55.5920646501321,-4.07192430265166,158.084747431811,9389.27479855515,0,8.53570436232287,0
30-Jun-2024 10:04:18,55.5909803977297,-4.07051567731134,158.702265976467,9425.95165323701,0.370123610289698,8.56904695748819,0
30-Jun-2024 10:04:19,55.5898961388812,-4.06910708304937,159.319784521122,9462.62850791887,0,8.60238955265351,0
30-Jun-2024 10:04:20,55.588811824343,-4.06769875727876,159.937303065778,9499.30536260072,0,8.63573214781884,0
30-Jun-2024 10:04:21,55.5877275098049,-4.06629043150815,160.554821610433,9535.98221728258,0,8.66907474298416,0
30-Jun-2024 10:04:22,55.5866431952667,-4.06488210573754,161.172340155089,9572.65907196444,0,8.70241733814949,0
30-Jun-2024 10:04:23,55.585558864918,-4.06347385619728,161.789858699744,9609.33592664629,-0.771898162865614,8.73575993331481,0
30-Jun-2024 10:04:24,55.584474488267,-4.06206582990305,162.4073772444,9646.01278132815,0,8.76910252848013,0
30-Jun-2024 10:04:25,55.583390111616,-4.06065780360882,163.024895789055,9682.68963601,0,8.80244512364546,0.0898400518242005
30-Jun-2024 10:04:26,55.5823057349649,-4.05924977731458,163.642414333711,9719.36649069186,0,8.83578771881078,0
30-Jun-2024 10:04:27,55.5812213331459,-4.05784187237456,164.259932878366,9756.04334537372,0,8.8691303139761,0
30-Jun-2024 10:04:28,55.580136894405,-4.05643414546339,164.877451423022,9792.72020005557,0,8.90247290914143,0
30-Jun-2024 10:04:29,55.579052455664,-4.05502641855222,165.494969967677,9829.39705473743,0,8.93581550430675,0
30-Jun-2024 10:04:30,55.577968016923,-4.05361869164105,166.112488512333,9866.07390941928,0,8.96915809947208,0
30-Jun-2024 10:04:31,55.5768835436635,-4.05221113117982,166.730007056988,9902.75076410114,0,9.0025006946374,0
30-Jun-2024 10:04:32,55.5757990428555,-4.05080370355843,167.347525601644,9939.427618783,0,9.03584328980272,0
30-Jun-2024 10:04:33,55.5747145420475,-4.04939627593705,167.965044146299,9976.10447346485,0,9.06918588496805,0
30-Jun-2024 10:04:34,55.5736300412395,-4.04798884831566,168.582562690955,10012.7813281467,-0.721189576680569,9.10252848013337,0
30-Jun-2024 10:04:35,55.5725454965693,-4.04658163221182,169.20008123561,10049.4581828286,0,9.1358710752987,0
30-Jun-2024 10:04:36,55.5714609337171,-4.04517450378696,169.817599780266,10086.1350375104,0,9.16921367046402,0
30-Jun-2024 10:04:37,55.5703763708649,-4.0437673753621,170.435118324921,10122.8118921923,0,9.20255626562934,0
30-Jun-2024 10:04:38,55.5692918080128,-4.04236024693724,171.052636869577,10159.4887468741,0,9.23589886079466,0.612009563508637
30-Jun-2024 10:04:39,55.5682071919616,-4.04095337506943,171.670155414232,10196.165601556,0.524298656431798,9.26924145595999,0
30-Jun-2024 10:04:40,55.5671225670881,-4.03954654574787,172.287673958888,10232.8424562378,0,9.30258405112531,0
30-Jun-2024 10:04:41,55.5660379422147,-4.03813971642631,172.905192503543,10269.5193109197,0,9.33592664629063,0
30-Jun-2024 10:04:42,55.5649533168108,-4.03673288966312,173.522711048199,10306.1961656016,-0.200161350317332,9.36926924145596,0
30-Jun-2024 10:04:43,55.5638686299389,-4.03532635935166,174.140229592854,10342.8730202834,0,9.40261183662128,0
30-Jun-2024 10:04:44,55.5627839430671,-4.03391982904019,174.75774813751,10379.5498749653,0,9.43595443178661,0
30-Jun-2024 10:04:45,55.5616992561952,-4.03251329872873,175.375266682166,10416.2267296471,0,9.46929702695193,0
30-Jun-2024 10:04:46,55.5606145594471,-4.03110681605216,175.992785226821,10452.903584329,0,9.50263962211725,0
30-Jun-2024 10:04:47,55.5595298105997,-4.02970058465762,176.610303771477,10489.5804390108,0,9.53598221728258,0
30-Jun-2024 10:04:48,55.5584450617523,-4.02829435326308,177.227822316132,10526.2572936927,0,9.5693248124479,0
30-Jun-2024 10:04:49,55.5573603129049,-4.02688812186855,177.845340860788,10562.9341483745,0,9.60266740761323,0
30-Jun-2024 10:04:50,55.5562755448422,-4.02548198315732,178.462859405443,10599.6110030564,0,9.63601000277855,0
30-Jun-2024 10:04:51,55.5551907340421,-4.02407605058657,179.080377950099,10636.2878577383,0,9.66935259794387,0
30-Jun-2024 10:04:52,55.554105923242,-4.02267011801582,179.697896494754,10672.9647124201,-0.518015718939768,9.7026951931092,0
30-Jun-2024 10:04:53,55.5530211124419,-4.02126418544507,180.31541503941,10709.641567102,-0.0881237736288074,9.73603778827452,0
30-Jun-2024 10:04:54,55.5519362730945,-4.01985839057797,180.932933584065,10746.3184217838,0,9.76938038343985,0
30-Jun-2024 10:04:55,55.5508514003645,-4.01845275673789,181.550452128721,10782.9952764657,0,9.80272297860517,0
30-Jun-2024 10:04:56,55.5497665276346,-4.0170471228978,182.167970673376,10819.6721311475,0.00938717603049002,9.83606557377049,0
30-Jun-2024 10:04:57,55.5486816549046,-4.01564148905772,182.785489218032,10856.3489858294,0,9.86940816893582,0
30-Jun-2024 10:04:58,55.5475967443021,-4.01423603791357,183.403007762687,10893.0258405113,0,9.90275076410114,0
30-Jun-2024 10:04:59,55.5465118096652,-4.01283070271106,184.020526307343,10929.7026951931,0,9.93609335926646,0
30-Jun-2024 10:05:00,55.5454268750282,-4.01142536750856,184.638044851998,10966.379549875,0,9.96943595443179,0.163493562899131
30-Jun-2024 10:05:01,55.5443419403912,-4.01002003230606,185.255563396654,11003.0564045568,-0.398192025416605,10.0027785495971,-0.99039946757594
30-Jun-2024 10:05:02,55.5432569585634,-4.00861492476371,185.873081941309,11039.7332592387,0.755291197596381,10.0361211447624,0
30-Jun-2024 10:05:03,55.5421719620422,-4.00720988810573,186.490600485965,11076.4101139205,0,10.0694637399278,0
30-Jun-2024 10:05:04,55.5410869655211,-4.00580485144775,187.10811903062,11113.0869686024,-0.175944620973053,10.1028063350931,0.238170918077108
30-Jun-2024 10:05:05,55.5400019689999,-4.00439981478976,187.725637575276,11149.7638232842,0,10.1361489302584,0.844572734646046
30-Jun-2024 10:05:06,55.5389169159764,-4.00299505072812,188.343156119931,11186.4406779661,0,10.1694915254237,0
30-Jun-2024 10:05:07,55.5378318575939,-4.00159031252162,188.960674664587,11223.117532648,0,10.2028341205891,0
30-Jun-2024 10:05:08,55.5367467992113,-4.00018557431513,189.578193209242,11259.7943873298,0.751191464291397,10.2361767157544,-0.414142692452503
30-Jun-2024 10:05:09,55.5356617368605,-3.99878085525464,190.195711753898,11296.4712420117,0,10.2695193109197,0
30-Jun-2024 10:05:10,55.5345766166393,-3.99737641540664,190.813230298553,11333.1480966935,0,10.302861906085,0.309358822343
30-Jun-2024 10:05:11,55.5334914964182,-3.99597197555863,191.430748843209,11369.8249513754,1.15781305167225,10.3362045012503,0
30-Jun-2024 10:05:12,55.532406376197,-3.99456753571062,192.048267387864,11406.5018060572,-0.00279139172245282,10.3695470964157,0
30-Jun-2024 10:05:13,55.5313212426871,-3.99316315998173,192.66578593252,11443.1786607391,0,10.402889691581,0
30-Jun-2024 10:05:14,55.5302360606502,-3.99175901839924,193.283304477175,11479.855515421,0,10.4362322867463,0
30-Jun-2024 10:05:15,55.5291508786132,-3.99035487681674,193.900823021831,11516.5323701028,0,10.4695748819116,0.166470759772518
30-Jun-2024 10:05:16,55.5280656965763,-3.98895073523425,194.518341566486,11553.2092247847,0,10.502917477077,0
30-Jun-2024 10:05:17,55.5269804919369,-3.98754670271594,195.135860111142,11589.8860794665,0,10.5362600722423,0
30-Jun-2024 10:05:18,55.525895248107,-3.98614285930601,195.753378655797,11626.5629341484,0,10.5696026674076,0
30-Jun-2024 10:05:19,55.524810004277,-3.98473901589608,196.370897200453,11663.2397888302,-0.775901197070852,10.6029452625729,0
30-Jun-2024 10:05:20,55.5237247604471,-3.98333517248615,196.988415745108,11699.9166435121,0,10.6362878577383,0
30-Jun-2024 10:05:21,55.522639484708,-3.98193148305747,197.605934289764,11736.5934981939,0,10.6696304529036,0
30-Jun-2024 10:05:22,55.5215541791078,-3.98052793772718,198.22345283442,11773.2703528758,0,10.7029730480689,0
30-Jun-2024 10:05:23,55.5204688735076,-3.9791243923969,198.840971379075,11809.9472075577,0,10.7363156432342,0
30-Jun-2024 10:05:24,55.5193835679074,-3.97772084706661,199.45848992373,11846.6240622395,-0.628400281592145,10.7696582383996,0
30-Jun-2024 10:05:25,55.5182982210981,-3.97631750060662,200.076008468386,11883.3009169214,0,10.8030008335649,-1.05769122530863
30-Jun-2024 10:05:26,55.5172128537505,-3.97491425326309,200.693527013042,11919.9777716032,0,10.8363434287302,0
30-Jun-2024 10:05:27,55.5161274864028,-3.97351100591956,201.311045557697,11956.6546262851,-0.00434831574686906,10.8696860238955,0
30-Jun-2024 10:05:28,55.5150421190551,-3.97210775857602,201.928564102353,11993.3314809669,0,10.9030286190608,-0.395855244918286
30-Jun-2024 10:05:29,55.5139567012054,-3.97070475496385,202.546082647008,12030.0083356488,0.495720219412625,10.9363712142262,0
30-Jun-2024 10:05:30,55.512871272133,-3.96930180551421,203.163601191664,12066.6851903306,-0.00356732626437139,10.9697138093915,0
30-Jun-2024 10:05:31,55.5117858430606,-3.96789885606456,203.781119736319,12103.3620450125,0,11.0030564045568,-0.640200798885686
30-Jun-2024 10:05:32,55.5107004139882,-3.96649590661492,204.398638280975,12140.0388996944,0,11.0363989997221,-0.146974228396776
30-Jun-2024 10:05:33,55.5096149251276,-3.96509324572972,205.01615682563,12176.7157543762,-1.11425523843658,11.0697415948875,0.361642044501014
30-Jun-2024 10:05:34,55.5085294343532,-3.96369059408113,205.633675370286,12213.3926090581,0,11.1030841900528,0
30-Jun-2024 10:05:35,55.5074439435788,-3.96228794243254,206.251193914941,12250.0694637399,0,11.1364267852181,0
30-Jun-2024 10:05:36,55.5063584454161,-3.96088532644525,206.868712459597,12286.7463184218,0,11.1697693803834,0
30-Jun-2024 10:05:37,55.5052728929625,-3.95948297250491,207.486231004252,12323.4231731036,-0.610127068613817,11.2031119755488,0
30-Jun-2024 10:05:38,55.5041873405088,-3.95808061856456,208.103749548908,12360.1000277855,0.572903149484322,11.2364545707141,0
30-Jun-2024 10:05:39,55.5031017880552,-3.95667826462422,208.721268093563,12396.7768824674,0,11.2697971658794,0
30-Jun-2024 10:05:40,55.5020162189181,-3.95527599121512,209.338786638219,12433.4537371492,1.06283997342847,11.3031397610447,0
30-Jun-2024 10:05:41,55.5009306048079,-3.95387393489024,209.956305182874,12470.1305918311,0,11.3364823562101,0.0589576953350954
30-Jun-2024 10:05:42,55.4998449906978,-3.95247187856536,210.57382372753,12506.8074465129,0,11.3698249513754,0
30-Jun-2024 10:05:43,55.4987593765876,-3.95106982224048,211.191342272185,12543.4843011948,0,11.4031675465407,0
30-Jun-2024 10:05:44,55.4976737365056,-3.94966789128881,211.808860816841,12580.1611558766,0,11.436510141706,-0.291407460408024
30-Jun-2024 10:05:45,55.4965880607617,-3.94826613248665,212.426379361496,12616.8380105585,0,11.4698527368714,0
30-Jun-2024 10:05:46,55.4955023850177,-3.94686437368448,213.043897906152,12653.5148652403,0,11.5031953320367,-0.0185247948656195
30-Jun-2024 10:05:47,55.4944167092738,-3.94546261488232,213.661416450807,12690.1917199222,0,11.536537927202,0
30-Jun-2024 10:05:48,55.4933309982764,-3.94406102626737,214.278934995463,12726.8685746041,-0.357923696566912,11.5698805223673,0
30-Jun-2024 10:05:49,55.4922452609214,-3.9426595648952,214.896453540118,12763.5454292859,-0.816645362460621,11.6032231175326,0
30-Jun-2024 10:05:50,55.4911595235663,-3.94125810352303,215.513972084774,12800.2222839678,0.262793175058933,11.636565712698,0
30-Jun-2024 10:05:51,55.4900737862113,-3.93985664215085,216.131490629429,12836.8991386496,0,11.6699083078633,0
30-Jun-2024 10:05:52,55.4889880043281,-3.93845539575196,216.749009174085,12873.5759933315,0.420622833176291,11.7032509030286,0
30-Jun-2024 10:05:53,55.4879022053847,-3.93705423171708,217.36652771874,12910.2528480133,0,11.7365934981939,0
30-Jun-2024 10:05:54,55.4868164064412,-3.9356530676822,217.984046263396,12946.9297026952,0,11.7699360933593,0
30-Jun-2024 10:05:55,55.4857306074978,-3.93425190364733,218.601564808051,12983.606557377,-0.131526254351827,11.8032786885246,0.00798739912325515
30-Jun-2024 10:05:56,55.4846447547584,-3.93285099934385,219.219083352707,13020.2834120589,0.225937283690354,11.8366212836899,0
30-Jun-2024 10:05:57,55.4835588942493,-3.9314501325536,219.836601897362,13056.9602667408,0,11.8699638788552,0
30-Jun-2024 10:05:58,55.4824730337401,-3.93004926576336,220.454120442018,13093.6371214226,0,11.9033064740206,0
30-Jun-2024 10:05:59,55.481387171717,-3.92864840628273,221.071638986673,13130.3139761045,0,11.9366490691859,0
30-Jun-2024 10:06:00,55.4803012496648,-3.92724783664447,221.689157531329,13166.9908307863,0,11.9699916643512,0
30-Jun-2024 10:06:01,55.4792153276126,-3.92584726700621,222.306676075984,13203.6676854682,-0.42441457987896,11.9972214504029,0
30-Jun-2024 10:06:02,55.4781294055604,-3.92444669736795,222.92419462064,13240.34454015,0,11.9694359544318,0
30-Jun-2024 10:06:03,55.4770434727175,-3.92304617983422,223.541713165295,13277.0213948319,0.3127228897304,11.9416504584607,0
30-Jun-2024 10:06:04,55.4759574891449,-3.92164590725533,224.159231709951,13313.6982495138,0,11.9138649624896,0
30-Jun-2024 10:06:05,55.4748715055723,-3.92024563467645,224.776750254607,13350.3751041956,0,11.8860794665185,0
30-Jun-2024 10:06:06,55.4737855219997,-3.91884536209757,225.394268799262,13387.0519588775,0,11.8582939705474,0
30-Jun-2024 10:06:07,55.4726995183664,-3.9174451863902,226.011787343918,13423.7288135593,-0.976966850304265,11.8305084745763,0
30-Jun-2024 10:06:08,55.4716134732961,-3.91604521077811,226.629305888573,13460.4056682412,0,11.8027229786052,0
30-Jun-2024 10:06:09,55.4705274282258,-3.91464523516602,227.246824433229,13497.082522923,0,11.7749374826341,0
30-Jun-2024 10:06:10,55.4694413831555,-3.91324525955393,227.864342977884,13533.7593776049,0,11.747151986663,0
30-Jun-2024 10:06:11,55.4683553087613,-3.91184542555243,228.48186152254,13570.4362322867,0,11.7193664906919,0
30-Jun-2024 10:06:12,55.4672692022159,-3.91044574681458,229.099380067195,13607.1130869686,0,11.6915809947208,0
30-Jun-2024 10:06:13,55.4661830956706,-3.90904606807673,229.716898611851,13643.7899416505,0,11.6637954987497,0
30-Jun-2024 10:06:14,55.4650969891252,-3.90764638933887,230.334417156506,13680.4667963323,0,11.6360100027786,0
30-Jun-2024 10:06:15,55.4640108439995,-3.90624689692279,230.951935701162,13717.1436510142,0.247420373711171,11.6082245068074,0
30-Jun-2024 10:06:16,55.4629246760017,-3.90484751496665,231.569454245817,13753.820505696,0,11.5804390108363,0
30-Jun-2024 10:06:17,55.461838508004,-3.9034481330105,232.186972790473,13790.4973603779,0,11.5526535148652,0
30-Jun-2024 10:06:18,55.4607523400062,-3.90204875105436,232.804491335128,13827.1742150597,0.46762560369536,11.5248680188941,0.015850378897014
30-Jun-2024 10:06:19,55.4596661241785,-3.90064960010328,233.422009879784,13863.8510697416,0,11.497082522923,1.02375327102553
30-Jun-2024 10:06:20,55.4585798947509,-3.89925051483635,234.039528424439,13900.5279244235,0,11.4692970269519,0
30-Jun-2024 10:06:21,55.4574936653233,-3.89785142956941,234.657046969095,13937.2047791053,-0.212980379148091,11.4415115309808,0.32054358725374
30-Jun-2024 10:06:22,55.4564074358957,-3.89645234430247,235.27456551375,13973.8816337872,0,11.4137260350097,0
30-Jun-2024 10:06:23,55.4553211493956,-3.89505353469603,235.892084058406,14010.558488469,-1.07824537584987,11.3859405390386,0
30-Jun-2024 10:06:24,55.4542348585608,-3.89365474602583,236.509602603061,14047.2353431509,0.287814508291575,11.3581550430675,0
30-Jun-2024 10:06:25,55.453148567726,-3.89225595735563,237.127121147717,14083.9121978327,-0.637977581704109,11.3303695470964,0
30-Jun-2024 10:06:26,55.4520622719673,-3.8908571924692,237.744639692372,14120.5890525146,0,11.3025840511253,0
30-Jun-2024 10:06:27,55.450975919748,-3.88945870030329,238.362158237028,14157.2659071964,0,11.2747985551542,0
30-Jun-2024 10:06:28,55.4498895675286,-3.88806020813738,238.979676781683,14193.9427618783,0.744776753893042,11.2470130591831,0
30-Jun-2024 10:06:29,55.4488032153093,-3.88666171597147,239.597195326339,14230.6196165602,0,11.219227563212,0.200999504982516
30-Jun-2024 10:06:30,55.4477168489143,-3.88526329228146,240.214713870994,14267.296471242,0,11.1914420672409,0
30-Jun-2024 10:06:31,55.446630435333,-3.88386509652743,240.83223241565,14303.9733259239,0,11.1636565712698,-0.231705322271415
30-Jun-2024 10:06:32,55.4455440217517,-3.8824669007734,241.449750960305,14340.6501806057,0.791659438893521,11.1358710752987,0
30-Jun-2024 10:06:33,55.4444576081703,-3.88106870501937,242.067269504961,14377.3270352876,0.398631567703453,11.1080855793276,0
30-Jun-2024 10:06:34,55.4433711711685,-3.8796706224055,242.684788049616,14414.0038899694,0,11.0803000833565,0
30-Jun-2024 10:06:35,55.4422846962478,-3.87827272297096,243.302306594272,14450.6807446513,-0.379063737979455,11.0525145873854,-0.481783861741903
30-Jun-2024 10:06:36,55.4411982213271,-3.87687482353642,243.919825138927,14487.3575993332,1.24341066014867,11.0247290914143,0
30-Jun-2024 10:06:37,55.4401117464064,-3.87547692410187,244.537343683583,14524.034454015,0,10.9969435954432,0
30-Jun-2024 10:06:38,55.4390252388271,-3.87407918244392,245.154862228238,14560.7113086969,0.0677206859427976,10.9691580994721,0
30-Jun-2024 10:06:39,55.4379387025895,-3.8726815792365,245.772380772894,14597.3881633787,0,10.941372603501,-0.488858054275606
30-Jun-2024 10:06:40,55.436852166352,-3.87128397602909,246.389899317549,14634.0650180606,0,10.9135871075299,0
30-Jun-2024 10:06:41,55.4357656301145,-3.86988637282167,247.007417862205,14670.7418727424,0.00867217302182911,10.8858016115588,0.581919259248238
30-Jun-2024 10:06:42,55.4346790519871,-3.86848897199943,247.62493640686,14707.4187274243,0,10.8580161155877,0
30-Jun-2024 10:06:43,55.4335924544554,-3.86709166492681,248.242454951516,14744.0955821061,-0.195897329512714,10.8302306196166,0
30-Jun-2024 10:06:44,55.4325058569236,-3.86569435785418,248.859973496172,14780.772436788,0,10.8024451236455,0
30-Jun-2024 10:06:45,55.4314192593918,-3.86429705078156,249.477492040827,14817.4492914699,0.331758960915801,10.7746596276744,-0.520046578307478
30-Jun-2024 10:06:46,55.4303326107458,-3.86289999067487,250.095010585483,14854.1261461517,0,10.7468741317032,0
30-Jun-2024 10:06:47,55.4292459519423,-3.86150297964474,250.712529130138,14890.8030008336,0,10.7190886357321,0
30-Jun-2024 10:06:48,55.4281592931389,-3.86010596861461,251.330047674794,14927.4798555154,0,10.691303139761,0
30-Jun-2024 10:06:49,55.4270726343355,-3.85870895758448,251.947566219449,14964.1567101973,0,10.6635176437899,0
30-Jun-2024 10:06:50,55.4259859152,-3.85731223807323,252.565084764105,15000.8335648791,0,10.6357321478188,0
30-Jun-2024 10:06:51,55.4248991951475,-3.85591552299331,253.18260330876,15037.510419561,0,10.6079466518477,-0.143052400272376
30-Jun-2024 10:06:52,55.4238124750949,-3.8545188079134,253.800121853416,15074.1872742428,0,10.5801611558766,0
30-Jun-2024 10:06:53,55.422725746726,-3.85312213301954,254.417640398071,15110.8641289247,0,10.5523756599055,0
30-Jun-2024 10:06:54,55.4216389654469,-3.85172571379759,255.035158942727,15147.5409836066,0,10.5245901639344,0
30-Jun-2024 10:06:55,55.4205521841678,-3.85032929457564,255.652677487382,15184.2178382884,0,10.4968046679633,0
30-Jun-2024 10:06:56,55.4194654028886,-3.84893287535369,256.270196032038,15220.8946929703,0,10.4690191719922,0
30-Jun-2024 10:06:57,55.4183786040665,-3.84753654090737,256.887714576693,15257.5715476521,0,10.4412336760211,0
30-Jun-2024 10:06:58,55.4172917615833,-3.84614041745117,257.505233121349,15294.248402334,0,10.41344818005,0
30-Jun-2024 10:06:59,55.4162049191002,-3.84474429399496,258.122751666004,15330.9252570158,0,10.3856626840789,0
30-Jun-2024 10:07:00,55.415118076617,-3.84334817053876,258.74027021066,15367.6021116977,0,10.3578771881078,0
30-Jun-2024 10:07:01,55.414031207371,-3.84195217641997,259.357788755315,15404.2789663796,0,10.3300916921367,0
30-Jun-2024 10:07:02,55.4129443037063,-3.84055634863731,259.975307299971,15440.9558210614,0,10.3023061961656,0
30-Jun-2024 10:07:03,55.4118574000416,-3.83916052085466,260.592825844626,15477.6326757433,0.208903215104298,10.2745207001945,0
30-Jun-2024 10:07:04,55.4107704963769,-3.83776469307201,261.210344389282,15514.3095304251,0,10.2467352042234,-0.0341623623596752
30-Jun-2024 10:07:05,55.4096835567363,-3.83636903916076,261.827862933937,15550.986385107,0,10.2189497082523,0
30-Jun-2024 10:07:06,55.4085965919125,-3.83497350695949,262.445381478593,15587.6632397888,-0.786473293729193,10.1911642122812,0
30-Jun-2024 10:07:07,55.4075096270888,-3.83357797475823,263.062900023248,15624.3400944707,0,10.1633787163101,0
30-Jun-2024 10:07:08,55.4064226622651,-3.83218244255696,263.680418567904,15661.0169491525,0,10.135593220339,0
30-Jun-2024 10:07:09,55.4053356522592,-3.83078712873331,264.297937112559,15697.6938038344,0.15414971812343,10.1078077243679,0
30-Jun-2024 10:07:10,55.404248626299,-3.82939189202129,264.915455657215,15734.3706585163,0.377343196872319,10.0800222283968,0
30-Jun-2024 10:07:11,55.4031616003388,-3.82799665530928,265.53297420187,15771.0475131981,0,10.0522367324257,0
30-Jun-2024 10:07:12,55.4020745743786,-3.82660141859726,266.150492746526,15807.72436788,0,10.0244512364546,0
30-Jun-2024 10:07:13,55.4009874940367,-3.82520644474131,266.768011291181,15844.4012225618,0,9.99666574048347,-0.0791577906840041
30-Jun-2024 10:07:14,55.3999004069624,-3.82381150342643,267.385529835837,15881.0780772437,0,9.96888024451237,0
30-Jun-2024 10:07:15,55.3988133198882,-3.82241656211156,268.003048380492,15917.7549319255,-0.182315584044558,9.94109474854126,0
30-Jun-2024 10:07:16,55.3977262303311,-3.82102163279839,268.620566925148,15954.4317866074,-0.0396168769757947,9.91330925257016,-0.730814817301615
30-Jun-2024 10:07:17,55.3966390821653,-3.81962698678857,269.238085469803,15991.1086412892,0,9.88552375659906,0
30-Jun-2024 10:07:18,55.3955519339995,-3.81823234077875,269.855604014459,16027.7854959711,0,9.85773826062795,0
30-Jun-2024 10:07:19,55.3944647858338,-3.81683769476894,270.473122559114,16064.462350653,0,9.82995276465685,0
30-Jun-2024 10:07:20,55.3933776259767,-3.81544310527584,271.09064110377,16101.1392053348,0,9.80216726868575,0
30-Jun-2024 10:07:21,55.3922904167419,-3.81404875447903,271.708159648425,16137.8160600167,0,9.77438177271465,0
30-Jun-2024 10:07:22,55.391203207507,-3.81265440368221,272.325678193081,16174.4929146985,0,9.74659627674354,0
30-Jun-2024 10:07:23,55.3901159982722,-3.8112600528854,272.943196737737,16211.1697693804,0,9.71881078077244,0
30-Jun-2024 10:07:24,55.3890287681444,-3.80986580309257,273.560715282392,16247.8466240622,-0.301937449027215,9.69102528480133,0
30-Jun-2024 10:07:25,55.387941497863,-3.80847174741674,274.178233827048,16284.5234787441,0,9.66323978883023,0.492756708906728
30-Jun-2024 10:07:26,55.3868542275816,-3.80707769174091,274.795752371703,16321.200333426,0,9.63545429285913,-0.119736134864956
30-Jun-2024 10:07:27,55.3857669573002,-3.80568363606508,275.413270916358,16357.8771881078,0.241493526446606,9.60766879688802,0.288412096901764
30-Jun-2024 10:07:28,55.3846796569309,-3.80428972585274,276.030789461014,16394.5540427897,0,9.57988330091692,0
30-Jun-2024 10:07:29,55.3835923256254,-3.80289596520589,276.64830800567,16431.2308974715,0,9.55209780494582,0
30-Jun-2024 10:07:30,55.3825049943198,-3.80150220455904,277.265826550325,16467.9077521534,0,9.52431230897472,0
30-Jun-2024 10:07:31,55.3814176630143,-3.80010844391219,277.883345094981,16504.5846068352,0,9.49652681300361,0
30-Jun-2024 10:07:32,55.3803302924328,-3.79871487316062,278.500863639636,16541.2614615171,-0.494487043571593,9.46874131703251,0.464079789930244
30-Jun-2024 10:07:33,55.3792429001255,-3.79732140745079,279.118382184292,16577.9383161989,0,9.4409558210614,0
30-Jun-2024 10:07:34,55.3781555078183,-3.79592794174096,279.735900728947,16614.6151708808,0,9.4131703250903,0
30-Jun-2024 10:07:35,55.377068115511,-3.79453447603112,280.353419273603,16651.2920255627,0,9.3853848291192,0
30-Jun-2024 10:07:36,55.3759806747465,-3.79314124462063,280.970937818258,16687.9688802445,0.64700950417753,9.3575993331481,0
30-Jun-2024 10:07:37,55.37489322146,-3.79174807375587,281.588456362914,16724.6457349264,0,9.32981383717699,0
30-Jun-2024 10:07:38,55.3738057681735,-3.79035490289111,282.205974907569,16761.3225896082,-0.224698679930125,9.30202834120589,0.550539959540962
30-Jun-2024 10:07:39,55.372718314887,-3.78896173202635,282.823493452225,16797.9994442901,0,9.27424284523479,-0.174735401863079
30-Jun-2024 10:07:40,55.3716308039686,-3.7875688398373,283.44101199688,16834.6762989719,0,9.24645734926368,0
30-Jun-2024 10:07:41,55.3705432897253,-3.78617596372569,284.058530541536,16871.3531536538,0.252853504729376,9.21867185329258,0
30-Jun-2024 10:07:42,55.369455775482,-3.78478308761408,284.676049086191,16908.0300083356,0,9.19088635732148,0
30-Jun-2024 10:07:43,55.3683682553733,-3.7833902398656,285.293567630847,16944.7068630175,0,9.16310086135038,0
30-Jun-2024 10:07:44,55.3672806801956,-3.78199765841526,285.911086175502,16981.3837176994,0,9.13531536537927,0
30-Jun-2024 10:07:45,55.3661931050179,-3.78060507696493,286.528604720158,17018.0605723812,0,9.10752986940817,0
30-Jun-2024 10:07:46,55.3651055298402,-3.77921249551459,287.146123264813,17054.7374270631,0,9.07974437343707,0
30-Jun-2024 10:07:47,55.3640179396136,-3.77781998684023,287.763641809469,17091.4142817449,0,9.05195887746596,0.812238681461194
30-Jun-2024 10:07:48,55.3629303035239,-3.77642769995931,288.381160354124,17128.0911364268,-0.0562183312560121,9.02417338149486,0
30-Jun-2024 10:07:49,55.3618426674341,-3.77503541307839,288.99867889878,17164.7679911086,-0.757929380524485,8.99638788552376,0
30-Jun-2024 10:07:50,55.3607550313444,-3.77364312619747,289.616197443435,17201.4448457905,0,8.96860238955266,0
30-Jun-2024 10:07:51,55.3596673710291,-3.77225095647768,290.233715988091,17238.1217004724,0,8.94081689358155,0
30-Jun-2024 10:07:52,55.3585796740498,-3.77085896407434,290.851234532746,17274.7985551542,0,8.91303139761045,-0.0539592579326263
30-Jun-2024 10:07:53,55.3574919770705,-3.769466971671,291.468753077402,17311.4754098361,0,8.88524590163934,0
30-Jun-2024 10:07:54,55.3564042800911,-3.76807497926766,292.086271622057,17348.1522645179,0,8.85746040566824,0
30-Jun-2024 10:07:55,55.3553165497162,-3.76668314838294,292.703790166713,17384.8291191998,0,8.82967490969714,0.58890322717705
30-Jun-2024 10:07:56,55.3542287918697,-3.76529145036538,293.321308711368,17421.5059738816,0.658102056181401,8.80188941372604,0
30-Jun-2024 10:07:57,55.3531410340231,-3.76389975234782,293.938827256024,17458.1828285635,0,8.77410391775493,0.348658381691491
30-Jun-2024 10:07:58,55.3520532761766,-3.76250805433026,294.556345800679,17494.8596832453,0,8.74631842178383,0.333708504335904
30-Jun-2024 10:07:59,55.3509654757712,-3.76111656216113,295.173864345335,17531.5365379272,0,8.71853292581273,0
30-Jun-2024 10:08:00,55.3498776570798,-3.75972515843757,295.79138288999,17568.2133926091,-0.187218303253981,8.69074742984162,0
30-Jun-2024 10:08:01,55.3487898383885,-3.75833375471402,296.408901434646,17604.8902472909,0,8.66296193387052,0
30-Jun-2024 10:08:02,55.3477020196971,-3.75694235099046,297.026419979302,17641.5671019728,0,8.63517643789942,0.234092162054581
30-Jun-2024 10:08:03,55.3466141492904,-3.75555119741749,297.643938523957,17678.2439566546,-0.597827216012793,8.60739094192832,0
30-Jun-2024 10:08:04,55.3455262697766,-3.75416008789619,298.261457068612,17714.9208113365,0.180990068960155,8.57960544595721,0
30-Jun-2024 10:08:05,55.3444383902628,-3.7527689783749,298.878975613268,17751.5976660183,0,8.55181994998611,0
30-Jun-2024 10:08:06,55.3433505106839,-3.75137786916816,299.496494157924,17788.2745207002,0,8.524034454015,0
30-Jun-2024 10:08:07,55.34226257037,-3.7499870537574,300.114012702579,17824.9513753821,0,8.4962489580439,0
30-Jun-2024 10:08:08,55.341174630056,-3.74859623834665,300.731531247235,17861.6282300639,0,8.4684634620728,-0.445071870984204
30-Jun-2024 10:08:09,55.3400866897421,-3.74720542293589,301.34904979189,17898.3050847458,0,8.4406779661017,0
30-Jun-2024 10:08:10,55.3389987401977,-3.74581465217826,301.966568336546,17934.9819394276,0.122124773406673,8.41289247013059,-0.158540671955761
30-Jun-2024 10:08:11,55.3379107391061,-3.74442413078635,302.584086881201,17971.6587941095,-0.742343111490045,8.38510697415949,0
30-Jun-2024 10:08:12,55.3368227380144,-3.74303360939444,303.201605425857,18008.3356487913,0.117996600855975,8.35732147818839,-0.102577744647606
30-Jun-2024 10:08:13,55.3357347369227,-3.74164308800253,303.819123970512,18045.0125034732,0,8.32953598221728,0
30-Jun-2024 10:08:14,55.3346467174419,-3.74025265557468,304.436642515168,18081.689358155,0,8.30175048624618,0
30-Jun-2024 10:08:15,55.3335586555949,-3.73886242810996,305.054161059823,18118.3662128369,0,8.27396499027508,0.429189431650607
30-Jun-2024 10:08:16,55.3324705937478,-3.73747220064523,305.671679604479,18155.0430675188,0,8.24617949430397,0
30-Jun-2024 10:08:17,55.3313825319007,-3.73608197318051,306.289198149134,18191.7199222006,0,8.21839399833287,0
30-Jun-2024 10:08:18,55.3302944425126,-3.73469187896313,306.90671669379,18228.3967768825,0,8.19060850236177,0.0728965161780664
30-Jun-2024 10:08:19,55.3292063199324,-3.73330194533396,307.524235238445,18265.0736315643,0,8.16282300639067,0
30-Jun-2024 10:08:20,55.3281181973523,-3.73191201170478,308.141753783101,18301.7504862462,-1.2123749566861,8.13503751041956,0
30-Jun-2024 10:08:21,55.3270300747721,-3.73052207807561,308.759272327756,18338.427340928,0,8.10725201444846,0
30-Jun-2024 10:08:22,55.3259419155058,-3.72913232194945,309.376790872412,18375.1041956099,0,8.07946651847735,0
30-Jun-2024 10:08:23,55.3248537322148,-3.72774268206422,309.994309417067,18411.7810502917,0,8.05168102250625,0.0999680229065398
30-Jun-2024 10:08:24,55.3237655489239,-3.72635304217899,310.611827961723,18448.4579049736,0,8.02389552653515,0.122470903816261
